{
"type": "FeatureCollection",
"crs": { "type": "name", "properties": { "name": "urn:ogc:def:crs:OGC:1.3:CRS84" } },
"features": [
{ "type": "Feature", "properties": { "Name": "District E-18 Police Station", "Description": "" }, "geometry": { "type": "Point", "coordinates": [ -71.124269436436293, 42.256481540531148 ] } },
{ "type": "Feature", "properties": { "Name": "District E-5 Police Station", "Description": "" }, "geometry": { "type": "Point", "coordinates": [ -71.148367753500295, 42.286785594068739 ] } },
{ "type": "Feature", "properties": { "Name": "District A-7 Police Station", "Description": "" }, "geometry": { "type": "Point", "coordinates": [ -71.038676422262, 42.371057781911908 ] } },
{ "type": "Feature", "properties": { "Name": "District A-1 Police Station", "Description": "" }, "geometry": { "type": "Point", "coordinates": [ -71.060307267102033, 42.36182512483834 ] } },
{ "type": "Feature", "properties": { "Name": "District D-14 Police Station", "Description": "" }, "geometry": { "type": "Point", "coordinates": [ -71.150578318124062, 42.349394510980034 ] } },
{ "type": "Feature", "properties": { "Name": "District A-15 Police Station", "Description": "" }, "geometry": { "type": "Point", "coordinates": [ -71.056047130896047, 42.376466657027557 ] } },
{ "type": "Feature", "properties": { "Name": "District C-6 Police Station", "Description": "" }, "geometry": { "type": "Point", "coordinates": [ -71.054936284886793, 42.341164040750563 ] } },
{ "type": "Feature", "properties": { "Name": "District D-4 Police Station", "Description": "" }, "geometry": { "type": "Point", "coordinates": [ -71.069239757002947, 42.339439673100109 ] } },
{ "type": "Feature", "properties": { "Name": "Boston Police Headquarters", "Description": "" }, "geometry": { "type": "Point", "coordinates": [ -71.090747519512675, 42.334192330772488 ] } },
{ "type": "Feature", "properties": { "Name": "District B-2 Police Station", "Description": "" }, "geometry": { "type": "Point", "coordinates": [ -71.085684348919983, 42.328385389008155 ] } },
{ "type": "Feature", "properties": { "Name": "District E-13 Police Station", "Description": "" }, "geometry": { "type": "Point", "coordinates": [ -71.104639216747401, 42.309722445244418 ] } },
{ "type": "Feature", "properties": { "Name": "District B-3 Police Station", "Description": "" }, "geometry": { "type": "Point", "coordinates": [ -71.091701991396206, 42.284728929101234 ] } },
{ "type": "Feature", "properties": { "Name": "District C-11 Police Station", "Description": "" }, "geometry": { "type": "Point", "coordinates": [ -71.05916492056069, 42.298065504218826 ] } }
]
}
